LTLA,LTLA_name,x_long,y_lat,area,RGN,RGN_name,popT,popT1,popT2,popT3,popM,popM1,popM2,popM3,popF,popF1,popF2,popF3,income,density
E06000001,Hartlepool,-1.259178,54.66939,93.88836,E12000001,North East,93242,21110,59469,12663,45524,10799,29124,5601,47718,10311,30345,7062,22125.86207,993.1156535
E06000002,Middlesbrough,-1.222305,54.542013,53.861462,E12000001,North East,140545,34220,90148,16177,69436,17465,44800,7171,71109,16755,45348,9006,22062.7907,2609.379597
E06000003,Redcar and Cleveland,-1.020671,54.55162,244.909063,E12000001,North East,136718,29141,85484,22093,66417,15025,41426,9966,70301,14116,44058,12127,24446.59091,558.2398557
E06000004,Stockton-on-Tees,-1.332252,54.561823,203.931577,E12000001,North East,197213,45744,126260,25209,97322,23574,62489,11259,99891,22170,63771,13950,25865.83333,967.054749
E06000005,Darlington,-1.552639,54.548715,197.462873,E12000001,North East,106566,23625,67313,15628,51919,12070,32850,6999,54647,11555,34463,8629,24292.30769,539.6761345
E06000006,Halton,-2.712169,53.345142,79.109982,E12000002,North West,128432,30090,82624,15718,62649,15352,40150,7147,65783,14738,42474,8571,23854.43038,1623.461373
E06000007,Warrington,-2.562761,53.39911,180.630159,E12000002,North West,209547,46849,134573,28125,104059,24160,67428,12471,105488,22689,67145,15654,28052.75591,1160.088665
E06000008,Blackburn with Darwen,-2.467586,53.69266,137.044978,E12000002,North West,148942,40504,93544,14894,74605,20539,47284,6782,74337,19965,46260,8112,21887.91209,1086.811076
E06000009,Blackpool,-3.029223,53.817874,34.906545,E12000002,North West,139305,30504,88088,20713,69038,15545,44241,9252,70267,14959,43847,11461,19760.6383,3990.79886
E06000010,Kingston upon Hull,-0.334977,53.764128,71.457957,E12000003,Yorkshire and The Humber,260645,59690,173665,27290,131329,30786,88335,12208,129316,28904,85330,15082,22265.06024,3647.529414
E06000011,East Riding of Yorkshire,-0.491724,53.874482,2408.916705,E12000003,Yorkshire and The Humber,339614,66562,209801,63251,166675,34307,103857,28511,172939,32255,105944,34740,28407.14286,140.9820436
E06000012,North East Lincolnshire,-0.138497,53.542631,191.84569,E12000003,Yorkshire and The Humber,159821,36251,100090,23480,78411,18389,49612,10410,81410,17862,50478,13070,23677.35849,833.0705788
E06000013,North Lincolnshire,-0.593759,53.590819,846.302867,E12000003,Yorkshire and The Humber,172005,37591,108961,25453,85203,19187,54485,11531,86802,18404,54476,13922,26816.83168,203.2428421
E06000014,York,-1.061457,53.958782,271.921788,E12000003,Yorkshire and The Humber,209893,39185,142456,28252,102870,20026,70674,12170,107023,19159,71782,16082,29416.66667,771.8873929
E06000015,Derby,-1.468343,52.91256,78.007129,E12000004,East Midlands,257174,62990,163390,30794,127252,32273,81598,13381,129922,30717,81792,17413,27093.37748,3296.801245
E06000016,Leicester,-1.128464,52.637941,73.330165,E12000004,East Midlands,355218,88682,237520,29016,177932,45269,120146,12517,177286,43413,117374,16499,20796.875,4844.091105
E06000017,Rutland,-0.654625,52.660773,393.733984,E12000004,East Midlands,39697,8341,24130,7226,20273,4328,12636,3309,19424,4013,11494,3917,34300,100.8218788
E06000018,Nottingham,-1.176518,52.960615,74.608087,E12000004,East Midlands,331069,73286,230817,26966,168142,37731,118529,11882,162927,35555,112288,15084,23403.2967,4437.441212
E06000019,Herefordshire,-2.745116,52.103688,2179.77927,E12000005,West Midlands,192107,38101,120360,33646,95055,19611,60117,15327,97052,18490,60243,18319,27018.96552,88.13140057
E06000020,Telford and Wrekin,-2.488788,52.730219,290.294416,E12000005,West Midlands,177799,42819,113936,21044,88364,21729,57138,9497,89435,21090,56798,11547,26464.81481,612.4781952
E06000021,Stoke-on-Trent,-2.164544,53.018069,93.437677,E12000005,West Midlands,255833,60493,164523,30817,128596,30840,83912,13844,127237,29653,80611,16973,23530.18868,2738.006853
E06000022,Bath and North East Somerset,-2.475206,51.355965,351.161179,E12000009,South West,192106,38528,126817,26761,95047,19876,63296,11875,97059,18652,63521,14886,30145.21739,547.059332
E06000023,Bristol,-2.60042,51.466787,109.605015,E12000009,South West,463405,99043,321146,43216,232381,50574,162776,19031,231024,48469,158370,24185,27247.14829,4227.95435
E06000024,North Somerset,-2.794129,51.389801,374.707392,E12000009,South West,213919,45717,130537,37665,104076,23480,63752,16844,109843,22237,66785,20821,28676.2963,570.8961301
E06000025,South Gloucestershire,-2.457492,51.541904,496.965114,E12000009,South West,282644,62019,181632,38993,140058,31596,90863,17599,142586,30423,90769,21394,30149.09091,568.7401229
E06000026,Plymouth,-4.118286,50.392008,79.834112,E12000009,South West,263100,55606,172483,35011,131065,28491,86869,15705,132035,27115,85614,19306,26135.40373,3295.583722
E06000027,Torbay,-3.554224,50.441756,62.927773,E12000009,South West,135780,26848,82493,26439,66126,13746,40483,11897,69654,13102,42010,14542,23085.39326,2157.711826
E06000030,Swindon,-1.743791,51.571556,230.103224,E12000009,South West,221996,52703,144293,25000,110843,26950,72646,11247,111153,25753,71647,13753,27456.06061,964.7670126
E06000031,Peterborough,-0.253069,52.608546,343.430417,E12000006,East of England,201041,53375,126730,20936,100921,27494,64080,9347,100120,25881,62650,11589,26741.96429,585.3907809
E06000032,Luton,-0.425571,51.894231,43.361227,E12000006,East of England,214109,59930,135034,19145,108624,30823,69222,8579,105485,29107,65812,10566,25644.6281,4937.798462
E06000033,Southend-on-Sea,0.709395,51.547727,41.784151,E12000006,East of England,182463,41503,115144,25816,89405,21183,56947,11275,93058,20320,58197,14541,27965.42056,4366.799268
E06000034,Thurrock,0.367659,51.509145,163.302738,E12000006,East of England,172525,45731,110211,16583,85170,23397,54478,7295,87355,22334,55733,9288,27576.53061,1056.473407
E06000035,Medway,0.553477,51.415217,191.962339,E12000008,South East,277855,67753,178836,31266,137618,34746,88834,14038,140237,33007,90002,17228,28405.52147,1447.445376
E06000036,Bracknell Forest,-0.739741,51.408131,109.356754,E12000008,South East,121676,29847,79467,12362,60425,15415,39527,5483,61251,14432,39940,6879,31322.66667,1112.651899
E06000037,West Berkshire,-1.304483,51.449587,704.175823,E12000008,South East,158527,37644,99526,21357,78455,19253,49476,9726,80072,18391,50050,11631,33976.28866,225.1241733
E06000038,Reading,-0.983802,51.452991,40.390195,E12000008,South East,163203,38960,109746,14497,82420,20012,55966,6442,80783,18948,53780,8055,31118.5567,4040.658878
E06000039,Slough,-0.58629,51.508406,32.523032,E12000008,South East,149112,44433,94669,10010,75271,22730,48190,4351,73841,21703,46479,5659,25743.75,4584.812388
E06000040,Windsor and Maidenhead,-0.699531,51.485672,198.396242,E12000008,South East,150906,36436,93679,20791,74897,19200,46492,9205,76009,17236,47187,11586,33496.62921,760.6293268
E06000041,Wokingham,-0.883801,51.429447,178.960649,E12000008,South East,167979,41518,104792,21669,82776,21324,51763,9689,85203,20194,53029,11980,36258.58586,938.6365156
E06000042,Milton Keynes,-0.733496,52.083858,308.650664,E12000008,South East,268607,71332,172362,24913,132856,36460,85473,10923,135751,34872,86889,13990,29744.73684,870.2621809
E06000043,Brighton and Hove,-0.13409,50.844648,82.696249,E12000008,South East,290395,54343,208096,27956,145899,27749,105615,12535,144496,26594,102481,15421,29878.18182,3511.586118
E06000044,Portsmouth,-1.070086,50.820714,40.396354,E12000008,South East,215133,46736,146339,22058,109659,24006,75952,9701,105474,22730,70387,12357,28716.8,5325.554876
E06000045,Southampton,-1.399154,50.91991,49.886367,E12000008,South East,252796,53837,174904,24055,129167,27724,90987,10456,123629,26113,83917,13599,27493.24324,5067.43656
E06000046,Isle of Wight,-1.297947,50.674653,380.246185,E12000008,South East,141538,26378,86380,28780,69334,13647,42529,13158,72204,12731,43851,15622,27066.29213,372.2272717
E06000047,County Durham,-1.839796,54.695395,2231.557705,E12000001,North East,526980,106918,343109,76953,259299,54861,169480,34958,267681,52057,173629,41995,25211.41975,236.148946
E06000049,Cheshire East,-2.349363,53.180427,1166.413785,E12000002,North West,380790,80638,236781,63371,186328,41354,116498,28476,194462,39284,120283,34895,30083.33333,326.4621911
E06000050,Cheshire West and Chester,-2.731452,53.197502,916.613789,E12000002,North West,340502,71691,216010,52801,165941,36752,105268,23921,174561,34939,110742,28880,29310.37736,371.4781559
E06000051,Shropshire,-2.734143,52.635418,3197.397692,E12000005,West Midlands,320274,63457,200279,56538,158827,32335,100841,25651,161447,31122,99438,30887,27637.82383,100.167083
E06000052,Cornwall,-4.825041,50.406674,3549.876161,E12000009,South West,565968,114043,351372,100553,275042,58632,170702,45708,290926,55411,180670,54845,25391.10429,159.4331673
E06000054,Wiltshire,-1.944679,51.297635,3255.414976,E12000009,South West,498064,111389,309696,76979,246106,56802,154611,34693,251958,54587,155085,42286,29868.42105,152.9955485
E06000055,Bedford,-0.477078,52.189227,476.415555,E12000006,East of England,171623,42141,107622,21860,84577,21757,52995,9825,87046,20384,54627,12035,29790.29126,360.2380279
E06000056,Central Bedfordshire,-0.435981,52.0067,715.608075,E12000006,East of England,283606,65439,182068,36099,139890,33389,89772,16729,143716,32050,92296,19370,31975.79618,396.3147006
E06000057,Northumberland,-2.068536,55.239085,5026.110333,E12000001,North East,320274,62278,202864,55132,156270,32111,99010,25149,164004,30167,103854,29983,26605.58376,63.72203927
E06000058,Bournemouth,-1.878991,50.749693,161.359864,E12000009,South West,395784,79516,252571,63697,196725,40925,127412,28388,199059,38591,125159,35309,26473.81974,2452.803257
E06000059,Dorset,-2.335809,50.807852,2491.50179,E12000009,South West,376484,72019,224659,79806,184103,36926,110708,36469,192381,35093,113951,43337,28726.48402,151.1072565
E07000004,Aylesbury Vale,-0.885412,51.892267,902.740807,E12000008,South East,199448,48314,127396,23738,98466,24908,63044,10514,100982,23406,64352,13224,32877.3913,220.9360632
E07000005,Chiltern,-0.627754,51.680532,196.397321,E12000008,South East,95927,23397,57013,15517,46599,12045,27801,6753,49328,11352,29212,8764,36092.98246,488.4333427
E07000006,South Bucks,-0.590024,51.556375,141.300824,E12000008,South East,70043,15908,43022,11113,33846,8002,21126,4718,36197,7906,21896,6395,35807.5,495.7012848
E07000007,Wycombe,-0.815228,51.649254,324.6425,E12000008,South East,174641,43064,107796,23781,85830,21764,53371,10695,88811,21300,54425,13086,32383.17757,537.9486666
E07000008,Cambridge,0.132936,52.199386,40.694089,E12000006,East of England,125758,25552,88529,11677,65175,13109,46978,5088,60583,12443,41551,6589,33920.28986,3090.325968
E07000009,East Cambridgeshire,0.294695,52.343017,651.361074,E12000006,East of England,89362,20620,55835,12907,43880,10662,27297,5921,45482,9958,28538,6986,31082,137.1927239
E07000010,Fenland,0.060814,52.562841,546.452938,E12000006,East of England,101491,21261,63493,16737,50202,10869,31699,7634,51289,10392,31794,9103,26010.90909,185.7268814
E07000011,Huntingdonshire,-0.220772,52.373744,912.582093,E12000006,East of England,177352,38424,113694,25234,88592,19931,56989,11672,88760,18493,56705,13562,32803.80952,194.3408723
E07000012,South Cambridgeshire,0.081271,52.172822,901.709673,E12000006,East of England,157519,37190,98077,22252,77894,19040,48692,10162,79625,18150,49385,12090,35389.58333,174.689265
E07000026,Allerdale,-3.241971,54.703689,1257.78832,E12000002,North West,97527,19207,61345,16975,48108,9844,30431,7833,49419,9363,30914,9142,26640,77.53848438
E07000027,Barrow-in-Furness,-3.203751,54.139175,77.939217,E12000002,North West,67137,13952,42741,10444,33199,7091,21294,4814,33938,6861,21447,5630,24320.40816,861.4020333
E07000028,Carlisle,-2.804155,54.971305,1039.179845,E12000002,North West,108387,22461,69193,16733,52930,11465,33998,7467,55457,10996,35195,9266,25488.23529,104.3005217
E07000029,Copeland,-3.373056,54.420365,737.634334,E12000002,North West,68424,13589,43963,10872,34208,7026,22055,5127,34216,6563,21908,5745,27106.12245,92.7614088
E07000030,Eden,-2.622126,54.612937,2156.467234,E12000002,North West,52881,9644,33175,10062,26200,4981,16577,4642,26681,4663,16598,5420,27608.33333,24.52205124
E07000031,South Lakeland,-2.831307,54.312424,1552.952907,E12000002,North West,104532,18809,64152,21571,51366,9822,31601,9943,53166,8987,32551,11628,28669.49153,67.31176427
E07000032,Amber Valley,-1.466583,53.029269,265.364508,E12000004,East Midlands,126678,25284,81471,19923,62216,12984,40159,9073,64462,12300,41312,10850,28891.02564,477.3735604
E07000033,Bolsover,-1.277232,53.215726,160.320474,E12000004,East Midlands,79530,16585,51627,11318,39305,8468,25705,5132,40225,8117,25922,6186,26322.91667,496.0688926
E07000034,Chesterfield,-1.401202,53.256295,66.026066,E12000004,East Midlands,104628,20951,67919,15758,51278,10616,33749,6913,53350,10335,34170,8845,26117.3913,1584.646888
E07000035,Derbyshire Dales,-1.693629,53.128481,795.422407,E12000004,East Midlands,71977,13214,44771,13992,35404,6643,22436,6325,36573,6571,22335,7667,32258.13953,90.48902742
E07000036,Erewash,-1.346737,52.935518,109.61881,E12000004,East Midlands,115490,24358,73937,17195,56638,12693,36336,7609,58852,11665,37601,9586,28041.09589,1053.56006
E07000037,High Peak,-1.873889,53.373085,540.208775,E12000004,East Midlands,92221,18643,60008,13570,45469,9459,29910,6100,46752,9184,30098,7470,30576.27119,170.7136283
E07000038,North East Derbyshire,-1.448317,53.225916,275.665732,E12000004,East Midlands,101125,19501,63604,18020,49405,9854,31265,8286,51720,9647,32339,9734,28865.07937,366.8392124
E07000039,South Derbyshire,-1.559526,52.831058,338.142343,E12000004,East Midlands,104493,23359,67784,13350,51546,12027,33446,6073,52947,11332,34338,7277,31062.06897,309.0207487
E07000040,East Devon,-3.222688,50.765471,814.465216,E12000009,South West,144317,27230,84419,32668,69777,14099,41071,14607,74540,13131,43348,18061,28153.08642,177.1923431
E07000041,Exeter,-3.510844,50.722298,47.041928,E12000009,South West,130428,24038,91112,15278,64878,12284,46296,6298,65550,11754,44816,8980,27410.81081,2772.590443
E07000042,Mid Devon,-3.556187,50.876225,912.901279,E12000009,South West,81695,17850,50210,13635,39846,9209,24385,6252,41849,8641,25825,7383,26448.83721,89.48941345
E07000043,North Devon,-3.910945,51.069104,1086.010433,E12000009,South West,96110,19624,58652,17834,47154,10098,29023,8033,48956,9526,29629,9801,25322.41379,88.498229
E07000044,South Hams,-3.823301,50.375087,886.54882,E12000009,South West,86221,16320,52588,17313,41624,8273,25435,7916,44597,8047,27153,9397,29479.59184,97.25465542
E07000045,Teignbridge,-3.65814,50.606589,673.912269,E12000009,South West,132844,25559,81848,25437,64296,13244,39761,11291,68548,12315,42087,14146,26973.80952,197.1235814
E07000046,Torridge,-4.250044,50.886005,985.302074,E12000009,South West,68143,13132,41908,13103,33378,6780,20469,6129,34765,6352,21439,6974,24513.51351,69.15950123
E07000047,West Devon,-4.045641,50.656886,1161.099785,E12000009,South West,55528,10492,33966,11070,27168,5376,16649,5143,28360,5116,17317,5927,27970.96774,47.82362439
E07000061,Eastbourne,0.266059,50.776765,44.16687,E12000008,South East,103160,21044,62621,19495,50000,10786,30748,8466,53160,10258,31873,11029,26855.7377,2335.68736
E07000062,Hastings,0.570487,50.869924,29.742877,E12000008,South East,92855,20309,59453,13093,45405,10423,29162,5820,47450,9886,30291,7273,24760.37736,3121.923948
E07000063,Lewes,0.00465,50.882804,292.076783,E12000008,South East,102744,21198,62036,19510,49975,11097,30422,8456,52769,10101,31614,11054,30650,351.7705137
E07000064,Rother,0.537369,50.952209,511.817609,E12000008,South East,95656,17072,55673,22911,46074,8828,27078,10168,49582,8244,28595,12743,28344.82759,186.894703
E07000065,Wealden,0.198469,50.967802,834.950669,E12000008,South East,160175,32619,96770,30786,77253,16789,46724,13740,82922,15830,50046,17046,31725.26316,191.8376809
E07000066,Basildon,0.466149,51.590303,110.032458,E12000006,East of England,185862,45032,117584,23246,90194,23104,57001,10089,95668,21928,60583,13157,28539.09091,1689.156122
E07000067,Braintree,0.589907,51.941951,611.733332,E12000006,East of England,151561,34167,95472,21922,74315,17608,46844,9863,77246,16559,48628,12059,29920.68966,247.7566483
E07000068,Brentwood,0.310797,51.63865,153.125409,E12000006,East of England,76550,16952,47841,11757,37217,8715,23424,5078,39333,8237,24417,6679,32719.56522,499.9170321
E07000069,Castle Point,0.581383,51.545465,45.056307,E12000006,East of England,90070,18137,55102,16831,43818,9202,27144,7472,46252,8935,27958,9359,28929.82456,1999.054206
E07000070,Chelmsford,0.480573,51.725688,342.242528,E12000006,East of England,177079,39670,112493,24916,87352,20478,55724,11150,89727,19192,56769,13766,33395.3271,517.4079359
E07000071,Colchester,0.857227,51.875725,333.147468,E12000006,East of England,192523,42315,126277,23931,95713,21706,63287,10720,96810,20609,62990,13211,29828.57143,577.8912298
E07000072,Epping Forest,0.148777,51.708888,338.985072,E12000006,East of England,131137,29053,83024,19060,63314,14767,40131,8416,67823,14286,42893,10644,29297.4359,386.8518434
E07000073,Harlow,0.108555,51.768351,30.533639,E12000006,East of England,86594,22206,54734,9654,42084,11421,26646,4017,44510,10785,28088,5637,26816.66667,2836.019644
E07000074,Maldon,0.768969,51.710354,358.77867,E12000006,East of England,64425,12639,40245,11541,31696,6567,19808,5321,32729,6072,20437,6220,31527.5,179.5675311
E07000075,Rochford,0.744938,51.595194,169.371678,E12000006,East of England,86981,17837,54330,14814,42597,9145,26822,6630,44384,8692,27508,8184,31183.01887,513.5510318
E07000076,Tendring,1.110374,51.870351,337.663201,E12000006,East of England,145803,28388,85289,32126,70201,14538,41136,14527,75602,13850,44153,17599,25649.4382,431.8000883
E07000077,Uttlesford,0.279737,51.934701,641.10981,E12000006,East of England,89179,20976,55602,12601,43727,10734,27236,5757,45452,10242,28366,6844,33260.86957,139.1009755
E07000078,Cheltenham,-2.074016,51.897024,46.596905,E12000009,South West,117090,24701,75814,16575,57477,12463,37879,7135,59613,12238,37935,9440,29008,2512.827837
E07000079,Cotswold,-1.892406,51.816686,1164.605287,E12000009,South West,89022,17227,55158,16637,43081,8776,26828,7477,45941,8451,28330,9160,31235.29412,76.43963237
E07000080,Forest of Dean,-2.487505,51.836738,526.516702,E12000009,South West,86543,17547,54102,14894,42491,8817,26734,6940,44052,8730,27368,7954,27106,164.3689548
E07000081,Gloucester,-2.24003,51.849337,40.52373,E12000009,South West,129285,30426,83298,15561,63909,15541,41533,6835,65376,14885,41765,8726,26973.07692,3190.352912
E07000082,Stroud,-2.295196,51.72853,460.693854,E12000009,South West,119019,25394,74586,19039,58517,13010,36925,8582,60502,12384,37661,10457,30301.44928,258.3472711
E07000083,Tewkesbury,-2.087039,51.945743,414.419493,E12000009,South West,92599,20099,57647,14853,45362,10452,28230,6680,47237,9647,29417,8173,30190,223.4426748
E07000084,Basingstoke and Deane,-1.200968,51.273457,633.80606,E12000008,South East,175729,41083,112996,21650,86827,21060,56009,9758,88902,20023,56987,11892,33696.33028,277.2598924
E07000085,East Hampshire,-0.955057,51.074659,514.424679,E12000008,South East,120681,26110,73882,20689,58270,13287,35727,9256,62411,12823,38155,11433,34573.61111,234.5941105
E07000086,Eastleigh,-1.326457,50.937747,79.776913,E12000008,South East,131819,29603,83618,18598,64228,15185,40761,8282,67591,14418,42857,10316,33233.76623,1652.345209
E07000087,Fareham,-1.222379,50.853107,74.270568,E12000008,South East,116339,23502,72546,20291,56852,12029,35725,9098,59487,11473,36821,11193,33680.82192,1566.421304
E07000088,Gosport,-1.160982,50.80512,25.339197,E12000008,South East,85283,18859,54107,12317,42429,9733,27183,5513,42854,9126,26924,6804,28952.83019,3365.655194
E07000089,Hart,-0.897456,51.28484,215.280831,E12000008,South East,96293,22634,59587,14072,47759,11711,29839,6209,48534,10923,29748,7863,37036.84211,447.2901723
E07000090,Havant,-0.990603,50.848483,55.359848,E12000008,South East,125813,26292,77665,21856,60906,13464,37732,9710,64907,12828,39933,12146,29479.48718,2272.63991
E07000091,New Forest,-1.63092,50.859904,753.106229,E12000008,South East,179753,33939,106804,39010,86509,17351,51725,17433,93244,16588,55079,21577,31202.63158,238.6821315
E07000092,Rushmoor,-0.767454,51.27346,39.049756,E12000008,South East,95142,22052,63174,9916,48001,11370,32125,4506,47141,10682,31049,5410,30439.65517,2436.430077
E07000093,Test Valley,-1.510627,51.128638,627.617114,E12000008,South East,125169,27583,77781,19805,61031,13970,38145,8916,64138,13613,39636,10889,32902.8169,199.4352882
E07000094,Winchester,-1.221209,51.028286,660.973779,E12000008,South East,124295,27783,77050,19462,60568,14420,37424,8724,63727,13363,39626,10738,35411.42857,188.0483068
E07000095,Broxbourne,-0.047326,51.725145,51.429105,E12000006,East of England,96876,22973,60966,12937,46842,11779,29418,5645,50034,11194,31548,7292,26937.5,1883.680457
E07000096,Dacorum,-0.540896,51.778189,212.426735,E12000006,East of England,154280,36691,98486,19103,75793,18845,48636,8312,78487,17846,49850,10791,31531.91489,726.2739316
E07000098,Hertsmere,-0.281086,51.677278,101.163709,E12000006,East of England,104205,25912,64288,14005,50112,13241,30826,6045,54093,12671,33462,7960,29020.96774,1030.063063
E07000099,North Hertfordshire,-0.192506,51.959102,375.361438,E12000006,East of England,133214,30572,84064,18578,65321,15573,41526,8222,67893,14999,42538,10356,33546.34146,354.895273
E07000102,Three Rivers,-0.460568,51.660975,88.789203,E12000006,East of England,93045,22328,58221,12496,45364,11383,28525,5456,47681,10945,29696,7040,31649.0566,1047.93147
E07000103,Watford,-0.403356,51.668132,21.408642,E12000006,East of England,96767,24839,62744,9184,48011,12710,31298,4003,48756,12129,31446,5181,28933.96226,4519.997111
E07000105,Ashford,0.811452,51.125326,580.565779,E12000008,South East,129281,31349,79811,18121,62845,15955,38799,8091,66436,15394,41012,10030,28956.41026,222.6810547
E07000106,Canterbury,1.104867,51.280918,308.887473,E12000008,South East,164553,31889,107974,24690,80878,16525,53626,10727,83675,15364,54348,13963,29647.77778,532.7279815
E07000107,Dartford,0.252329,51.429838,72.764943,E12000008,South East,109709,27752,70579,11378,54077,14162,34866,5049,55632,13590,35713,6329,29275.86207,1507.717803
E07000108,Dover,1.287863,51.211573,314.878568,E12000008,South East,116969,24200,73121,19648,57761,12361,36365,9035,59208,11839,36756,10613,28049.25373,371.4733611
E07000109,Gravesham,0.395096,51.402367,99.056411,E12000008,South East,106385,26417,66461,13507,52331,13507,32848,5976,54054,12910,33613,7531,28621.875,1073.983995
E07000110,Maidstone,0.580627,51.235,393.360811,E12000008,South East,169955,39469,106652,23834,83857,20442,52727,10688,86098,19027,53925,13146,30349.47368,432.0588001
E07000111,Sevenoaks,0.172115,51.275491,370.35321,E12000008,South East,120293,28260,73153,18880,58409,14387,35580,8442,61884,13873,37573,10438,34313.51351,324.8061492
E07000112,Folkestone and Hythe,0.994295,51.055698,356.726842,E12000008,South East,112578,22557,70039,19982,55713,11585,34980,9148,56865,10972,35059,10834,27840.29851,315.586008
E07000113,Swale,0.816241,51.335432,373.341874,E12000008,South East,148519,35078,93135,20306,73451,18112,46114,9225,75068,16966,47021,11081,27868.23529,397.8096494
E07000114,Thanet,1.337729,51.354344,103.352682,E12000008,South East,141819,31540,86085,24194,68704,16428,41605,10671,73115,15112,44480,13523,25826.19048,1372.185
E07000115,Tonbridge and Malling,0.357579,51.273428,240.126269,E12000008,South East,130508,31646,80793,18069,63821,16366,39396,8059,66687,15280,41397,10010,31783.33333,543.497388
E07000116,Tunbridge Wells,0.430718,51.114376,331.297579,E12000008,South East,118054,28219,73109,16726,58206,14212,36630,7364,59848,14007,36479,9362,33079.41176,356.3382514
E07000117,Burnley,-2.221961,53.778952,110.700868,E12000002,North West,88527,21438,55469,11620,43664,11122,27354,5188,44863,10316,28115,6432,22303.33333,799.6956266
E07000118,Chorley,-2.647781,53.661492,202.782225,E12000002,North West,116821,25112,75360,16349,58435,12916,37972,7547,58386,12196,37388,8802,27186.36364,576.0909271
E07000119,Fylde,-2.913701,53.787887,165.643017,E12000002,North West,79770,14884,48652,16234,39043,7563,24267,7213,40727,7321,24385,9021,27362.7451,481.5778017
E07000120,Hyndburn,-2.389791,53.758663,73.004716,E12000002,North West,80815,19643,50572,10600,39923,10126,25012,4785,40892,9517,25560,5815,22544.23077,1106.98328
E07000121,Lancaster,-2.691857,54.070971,575.732868,E12000002,North West,144246,29058,94340,20848,71233,14991,46831,9411,73013,14067,47509,11437,25901.1236,250.543278
E07000122,Pendle,-2.184916,53.865514,169.341568,E12000002,North West,91405,22482,57050,11873,45295,11405,28429,5461,46110,11077,28621,6412,22510.52632,539.7670583
E07000123,Preston,-2.697435,53.812095,142.289997,E12000002,North West,141818,33447,93638,14733,71835,17212,48021,6602,69983,16235,45617,8131,23968.60465,996.6828519
E07000124,Ribble Valley,-2.444699,53.907299,584.448858,E12000002,North West,60057,12562,37143,10352,29498,6483,18378,4637,30559,6079,18765,5715,29327.5,102.7583495
E07000125,Rossendale,-2.267294,53.693835,138.025433,E12000002,North West,70895,16288,45569,9038,34934,8335,22473,4126,35961,7953,23096,4912,25086.04651,513.6372222
E07000126,South Ribble,-2.708714,53.727997,112.974683,E12000002,North West,110527,23875,69875,16777,54060,12222,34275,7563,56467,11653,35600,9214,28007.14286,978.3342344
E07000127,West Lancashire,-2.870049,53.599302,346.741125,E12000002,North West,113949,23512,72215,18222,55194,12164,34952,8078,58755,11348,37263,10144,26969.86301,328.6284544
E07000128,Wyre,-2.831594,53.897101,282.492386,E12000002,North West,111223,21080,67455,22688,54286,11021,33045,10220,56937,10059,34410,12468,25510.14493,393.7203461
E07000129,Blaby,-1.221946,52.571548,130.467026,E12000004,East Midlands,100421,22231,63390,14800,49015,11420,31006,6589,51406,10811,32384,8211,29610,769.704063
E07000130,Charnwood,-1.146165,52.737035,279.055718,E12000004,East Midlands,182643,37361,121726,23556,92178,19355,62209,10614,90465,18006,59517,12942,30690.90909,654.5037002
E07000131,Harborough,-1.007883,52.53935,592.736287,E12000004,East Midlands,92499,20255,57655,14589,45731,10478,28587,6666,46768,9777,29068,7923,34902.12766,156.0542218
E07000132,Hinckley and Bosworth,-1.391018,52.616518,297.35929,E12000004,East Midlands,112423,23530,71590,17303,55228,12109,35210,7909,57195,11421,36380,9394,30992.42424,378.0712551
E07000133,Melton,-0.856142,52.796476,481.406395,E12000004,East Midlands,51100,10700,32258,8142,25012,5394,15869,3749,26088,5306,16389,4393,32333.33333,106.1473228
E07000134,North West Leicestershire,-1.405001,52.753173,279.316189,E12000004,East Midlands,102126,22037,65710,14379,50557,11347,32559,6651,51569,10690,33151,7728,29793.10345,365.628646
E07000135,Oadby and Wigston,-1.093424,52.587153,23.532692,E12000004,East Midlands,57056,12391,35498,9167,27708,6363,17435,3910,29348,6028,18063,5257,29252.77778,2424.541995
E07000136,Boston,-0.038974,52.973391,361.563393,E12000004,East Midlands,69366,15341,43633,10392,34496,7781,21951,4764,34870,7560,21682,5628,22744.44444,191.8501744
E07000137,East Lindsey,0.021868,53.251832,1760.36402,E12000004,East Midlands,140741,25464,85103,30174,68674,12950,41288,14436,72067,12514,43815,15738,23761.7284,79.94994126
E07000138,Lincoln,-0.554908,53.224741,35.685699,E12000004,East Midlands,99039,19624,68702,10713,49217,10165,34321,4731,49822,9459,34381,5982,25501.75439,2775.313439
E07000139,North Kesteven,-0.44614,53.081201,922.427406,E12000004,East Midlands,115985,24092,71884,20009,56565,12101,35154,9310,59420,11991,36730,10699,32206.25,125.738892
E07000140,South Holland,-0.050847,52.787607,742.299273,E12000004,East Midlands,93980,19221,58030,16729,46219,9896,28553,7770,47761,9325,29477,8959,25920.40816,126.6066173
E07000141,South Kesteven,-0.518249,52.854476,942.637915,E12000004,East Midlands,141853,30850,87730,23273,68429,15510,42330,10589,73424,15340,45400,12684,29498.76543,150.4851415
E07000142,West Lindsey,-0.47649,53.392855,1155.658524,E12000004,East Midlands,94869,19346,58885,16638,46425,9936,28566,7923,48444,9410,30319,8715,29194.23077,82.09085818
E07000143,Breckland,0.837316,52.588165,1305.131355,E12000006,East of England,139329,28277,85644,25408,69135,14660,42694,11781,70194,13617,42950,13627,27794.87179,106.7547718
E07000144,Broadland,1.309885,52.701311,552.404904,E12000006,East of England,129464,25283,79524,24657,63098,13032,38864,11202,66366,12251,40660,13455,30884.52381,234.3643206
E07000145,Great Yarmouth,1.659791,52.642296,174.204367,E12000006,East of England,99370,20929,60883,17558,49134,10722,30310,8102,50236,10207,30573,9456,24991.80328,570.4219803
E07000146,King\'s Lynn and West Norfolk,0.476146,52.7176,1428.773766,E12000006,East of England,151811,30987,91944,28880,74346,15811,45355,13180,77465,15176,46589,15700,27823.59551,106.2526508
E07000147,North Norfolk,1.17434,52.847511,964.981497,E12000006,East of England,104552,17323,61780,25449,50889,8906,30311,11672,53663,8417,31469,13777,27808.06452,108.3461189
E07000148,Norwich,1.27699,52.633087,39.010601,E12000006,East of England,141137,27902,97911,15324,70050,14279,49097,6674,71087,13623,48814,8650,27706.0241,3617.914013
E07000149,South Norfolk,1.275538,52.514574,907.69001,E12000006,East of England,138017,29517,84031,24469,67329,15130,40922,11277,70688,14387,43109,13192,30360.49383,152.053012
E07000150,Corby,-0.695903,52.499102,80.270088,E12000004,East Midlands,70827,18151,45768,6908,34917,9191,22700,3026,35910,8960,23068,3882,23912.19512,882.3585692
E07000151,Daventry,-1.048029,52.316066,665.655494,E12000004,East Midlands,84484,18458,53920,12106,42010,9442,26822,5746,42474,9016,27098,6360,32740.90909,126.9185048
E07000152,East Northamptonshire,-0.523411,52.457717,509.766466,E12000004,East Midlands,93906,21293,58855,13758,46405,10979,28952,6474,47501,10314,29903,7284,29689.79592,184.2137651
E07000153,Kettering,-0.76548,52.426193,233.519927,E12000004,East Midlands,101266,24277,63770,13219,49762,12320,31438,6004,51504,11957,32332,7215,28591.22807,433.6503582
E07000154,Northampton,-0.886897,52.241263,80.735957,E12000004,East Midlands,225146,56348,144754,24044,111849,28538,72584,10727,113297,27810,72170,13317,27862.40602,2788.670728
E07000155,South Northamptonshire,-1.042636,52.122644,634.055787,E12000004,East Midlands,92515,20816,58175,13524,45506,10672,28467,6367,47009,10144,29708,7157,34607.84314,145.909874
E07000156,Wellingborough,-0.712342,52.287823,163.095503,E12000004,East Midlands,79478,19249,49421,10808,39053,9898,24227,4928,40425,9351,25194,5880,25785.10638,487.3095735
E07000163,Craven,-2.174594,54.079898,1178.882754,E12000003,Yorkshire and The Humber,56832,10849,34890,11093,27541,5659,17025,4857,29291,5190,17865,6236,29334.375,48.20835644
E07000164,Hambleton,-1.319256,54.28708,1311.160778,E12000003,Yorkshire and The Humber,91134,17533,56397,17204,44782,9007,28037,7738,46352,8526,28360,9466,30171.15385,69.50635004
E07000165,Harrogate,-1.59582,54.067164,1309.060472,E12000003,Yorkshire and The Humber,160533,34735,98248,27550,78486,17992,48408,12086,82047,16743,49840,15464,31099.03846,122.6322263
E07000166,Richmondshire,-1.934062,54.361524,1318.664691,E12000003,Yorkshire and The Humber,53244,10793,34457,7994,28392,5774,18907,3711,24852,5019,15550,4283,27841.17647,40.37720913
E07000167,Ryedale,-0.852309,54.210608,1506.602577,E12000003,Yorkshire and The Humber,54920,10343,34031,10546,26906,5337,16752,4817,28014,5006,17279,5729,26446.66667,36.45287804
E07000168,Scarborough,-0.637349,54.366526,816.617069,E12000003,Yorkshire and The Humber,108736,20677,66848,21211,52833,10595,32806,9432,55903,10082,34042,11779,23869.01408,133.1542091
E07000169,Selby,-1.135175,53.78719,599.276065,E12000003,Yorkshire and The Humber,89106,19264,57238,12604,43729,9797,28188,5744,45377,9467,29050,6860,28916,148.6894024
E07000170,Ashfield,-1.259171,53.092303,109.57686,E12000004,East Midlands,127151,28164,81607,17380,62420,14360,40187,7873,64731,13804,41420,9507,26122.97297,1160.381854
E07000171,Bassetlaw,-0.959355,53.332853,637.936505,E12000004,East Midlands,116839,24515,74023,18301,57939,12462,37095,8382,58900,12053,36928,9919,28367.14286,183.1514564
E07000172,Broxtowe,-1.262125,52.97648,80.117366,E12000004,East Midlands,113272,22761,73205,17306,56241,11713,36724,7804,57031,11048,36481,9502,31587.32394,1413.825811
E07000173,Gedling,-1.119358,53.028411,119.986899,E12000004,East Midlands,117786,24886,75284,17616,57396,12872,36704,7820,60390,12014,38580,9796,30511.68831,981.6571724
E07000174,Mansfield,-1.172763,53.170744,76.69559,E12000004,East Midlands,108841,23641,70484,14716,53593,12033,34991,6569,55248,11608,35493,8147,28173.13433,1419.129835
E07000175,Newark and Sherwood,-0.919845,53.123951,651.308633,E12000004,East Midlands,121566,25767,76673,19126,59859,13121,38064,8674,61707,12646,38609,10452,30661.42857,186.6488387
E07000176,Rushcliffe,-1.037517,52.900884,409.197818,E12000004,East Midlands,117671,25601,73984,18086,58098,13221,36845,8032,59573,12380,37139,10054,38935.29412,287.565072
E07000177,Cherwell,-1.275842,51.958915,588.773182,E12000008,South East,149161,34756,95011,19394,73945,17757,47377,8811,75216,16999,47634,10583,31379.56989,253.3420417
E07000178,Oxford,-1.240955,51.754591,45.623155,E12000008,South East,154327,32143,108689,13495,78756,16450,56396,5910,75571,15693,52293,7585,30408.43373,3382.646378
E07000179,South Oxfordshire,-1.071462,51.633871,678.429799,E12000008,South East,140504,31714,86943,21847,69336,16172,43316,9848,71168,15542,43627,11999,34575.2809,207.101752
E07000180,Vale of White Horse,-1.441565,51.634224,578.710372,E12000008,South East,133732,30426,83676,19630,66650,15886,41834,8930,67082,14540,41842,10700,36472.36842,231.0862332
E07000181,West Oxfordshire,-1.506841,51.837669,714.448674,E12000008,South East,109800,23883,68548,17369,53992,12125,34050,7817,55808,11758,34498,9552,33681.81818,153.6849378
E07000187,Mendip,-2.544544,51.202882,739.395651,E12000009,South West,114881,24980,70869,19032,55908,12846,34506,8556,58973,12134,36363,10476,27472.72727,155.3714846
E07000188,Sedgemoor,-2.946507,51.179901,564.382216,E12000009,South West,122791,26131,75832,20828,60294,13459,37371,9464,62497,12672,38461,11364,26515.71429,217.5670964
E07000189,South Somerset,-2.709552,50.988098,959.06985,E12000009,South West,167861,34820,102416,30625,82488,17602,50994,13892,85373,17218,51422,16733,27887.37864,175.0247909
E07000192,Cannock Chase,-1.980206,52.712424,78.888529,E12000005,West Midlands,100109,21120,65408,13581,49609,10889,32635,6085,50500,10231,32773,7496,26826.66667,1268.993113
E07000193,East Staffordshire,-1.812274,52.863367,389.980483,E12000005,West Midlands,118574,27082,75082,16410,59548,13977,38284,7287,59026,13105,36798,9123,26770.83333,304.0511132
E07000194,Lichfield,-1.804971,52.688219,331.273749,E12000005,West Midlands,103965,21023,64602,18340,51454,10754,32322,8378,52511,10269,32280,9962,29958.62069,313.8341034
E07000195,Newcastle-under-Lyme,-2.318752,52.993195,210.929955,E12000005,West Midlands,129490,25149,85209,19132,64361,12996,42751,8614,65129,12153,42458,10518,27673.75,613.9004771
E07000196,South Staffordshire,-2.176658,52.625596,407.319286,E12000005,West Midlands,112126,20998,71168,19960,56163,10749,36385,9029,55963,10249,34783,10931,29079.41176,275.2779057
E07000197,Stafford,-2.176495,52.848198,598.219822,E12000005,West Midlands,135880,27223,86671,21986,67879,13889,43893,10097,68001,13334,42778,11889,30417.5,227.1405845
E07000198,Staffordshire Moorlands,-1.981256,53.079402,575.840794,E12000005,West Midlands,98397,19044,61713,17640,48575,9794,30602,8179,49822,9250,31111,9461,27133.89831,170.8753548
E07000199,Tamworth,-1.677848,52.626436,30.859807,E12000005,West Midlands,76678,17497,49186,9995,37586,9045,24043,4498,39092,8452,25143,5497,26235.29412,2484.720659
E07000200,Babergh,0.907961,52.052909,595.268992,E12000006,East of England,91401,18570,55382,17449,44589,9415,27200,7974,46812,9155,28182,9475,30453.7037,153.54571
E07000202,Ipswich,1.159775,52.056362,39.424994,E12000006,East of England,137532,32397,88900,16235,68778,16690,44790,7298,68754,15707,44110,8937,27070.58824,3488.446948
E07000203,Mid Suffolk,1.092606,52.246892,871.018954,E12000006,East of England,102493,20589,63977,17927,50731,10542,31789,8400,51762,10047,32188,9527,30814.28571,117.6702293
E07000207,Elmbridge,-0.392149,51.357146,96.327234,E12000008,South East,136626,35411,82713,18502,66215,18091,40116,8008,70411,17320,42597,10494,35044.44444,1418.352779
E07000208,Epsom and Ewell,-0.261435,51.339163,34.094436,E12000008,South East,79928,19560,49684,10684,38889,10018,24154,4717,41039,9542,25530,5967,34688.63636,2344.312134
E07000209,Guildford,-0.561638,51.247783,270.947205,E12000008,South East,147889,31157,98824,17908,73902,15920,49923,8059,73987,15237,48901,9849,35297.61905,545.8222018
E07000210,Mole Valley,-0.325093,51.212319,258.32482,E12000008,South East,87253,18707,53257,15289,42616,9495,26309,6812,44637,9212,26948,8477,35203.7037,337.7646794
E07000211,Reigate and Banstead,-0.19185,51.25323,129.146815,E12000008,South East,147757,35238,92882,19637,72133,17871,45658,8604,75624,17367,47224,11033,33197.67442,1144.100999
E07000212,Runnymede,-0.541328,51.393798,78.053122,E12000008,South East,88000,17959,58958,11083,42807,9070,28782,4955,45193,8889,30176,6128,32859.61538,1127.437286
E07000213,Spelthorne,-0.467995,51.424813,51.175989,E12000008,South East,99334,22578,63044,13712,49058,11746,31200,6112,50276,10832,31844,7600,30923.33333,1941.027461
E07000214,Surrey Heath,-0.670524,51.342933,95.084686,E12000008,South East,88874,20217,55684,12973,44036,10396,27835,5805,44838,9821,27849,7168,35320,934.6825839
E07000215,Tandridge,-0.043371,51.227072,248.190362,E12000008,South East,87496,19916,54180,13400,42592,10128,26484,5980,44904,9788,27696,7420,33360,352.5358491
E07000216,Waverley,-0.632691,51.149797,345.196584,E12000008,South East,125610,30154,74693,20763,61492,15675,36763,9054,64118,14479,37930,11709,35380.4878,363.8796148
E07000217,Woking,-0.560738,51.313881,63.608714,E12000008,South East,101167,24927,63745,12495,50490,12840,32045,5605,50677,12087,31700,6890,35470.4918,1590.458188
E07000218,North Warwickshire,-1.628019,52.547559,284.259942,E12000005,West Midlands,64850,13333,41386,10131,31987,6813,20543,4631,32863,6520,20843,5500,27139.47368,228.1362599
E07000219,Nuneaton and Bedworth,-1.475863,52.50115,78.973184,E12000005,West Midlands,128902,29321,81982,17599,63303,14896,40558,7849,65599,14425,41424,9750,25972.83951,1632.224933
E07000220,Rugby,-1.328354,52.384459,353.549655,E12000005,West Midlands,107194,25324,66781,15089,53362,12921,33570,6871,53832,12403,33211,8218,28775.40984,303.1936207
E07000221,Stratford-on-Avon,-1.622954,52.178821,977.992176,E12000005,West Midlands,127580,25297,78178,24105,62142,12964,38224,10954,65438,12333,39954,13151,31039.72603,130.4509414
E07000222,Warwick,-1.584681,52.310022,282.872396,E12000005,West Midlands,142484,28946,93933,19605,71277,14863,47726,8688,71207,14083,46207,10917,30668.60465,503.7041508
E07000223,Adur,-0.299375,50.845036,41.845087,E12000008,South East,63869,13634,39106,11129,31067,7098,19093,4876,32802,6536,20013,6253,28450,1526.320163
E07000224,Arun,-0.56744,50.841625,220.713638,E12000008,South East,159827,30087,95193,34547,76841,15506,46047,15288,82986,14581,49146,19259,27618.08511,724.1374002
E07000225,Chichester,-0.737371,50.942003,786.253329,E12000008,South East,120750,23330,72934,24486,58220,11994,35388,10838,62530,11336,37546,13648,31464.78873,153.5764563
E07000226,Crawley,-0.182011,51.125475,44.975138,E12000008,South East,112448,28424,73402,10622,56438,14911,36941,4586,56010,13513,36461,6036,28622.72727,2500.225791
E07000227,Horsham,-0.366153,50.993927,530.222222,E12000008,South East,142217,30859,87858,23500,69175,15848,42855,10472,73042,15011,45003,13028,33862.96296,268.2215005
E07000228,Mid Sussex,-0.126911,51.020921,334.032419,E12000008,South East,149716,34520,92677,22519,72964,17714,45374,9876,76752,16806,47303,12643,33917.44186,448.2079926
E07000229,Worthing,-0.396313,50.830053,32.460673,E12000008,South East,110025,22891,68578,18556,53059,11793,33325,7941,56966,11098,35253,10615,29784.61538,3389.486102
E07000234,Bromsgrove,-2.016021,52.361774,217.000556,E12000005,West Midlands,98662,21026,61290,16346,48573,10768,30519,7286,50089,10258,30771,9060,30539.65517,454.6624295
E07000235,Malvern Hills,-2.345019,52.182963,577.08344,E12000005,West Midlands,78113,15050,46969,16094,38026,7626,22994,7406,40087,7424,23975,8688,29642.22222,135.3582421
E07000236,Redditch,-1.951834,52.282297,54.259276,E12000005,West Midlands,84989,19803,54817,10369,42258,10223,27232,4803,42731,9580,27585,5566,26954.54545,1566.349687
E07000237,Worcester,-2.211312,52.196705,33.299253,E12000005,West Midlands,101891,22038,67436,12417,50284,11292,33580,5412,51607,10746,33856,7005,27249.20635,3059.85843
E07000238,Wychavon,-2.051072,52.164317,663.436028,E12000005,West Midlands,127340,25718,78800,22822,62271,13072,38616,10583,65069,12646,40184,12239,29653.84615,191.9401338
E07000239,Wyre Forest,-2.274623,52.379588,195.417745,E12000005,West Midlands,101062,20520,62506,18036,49839,10554,30968,8317,51223,9966,31538,9719,26106.15385,517.1587667
E07000240,St Albans,-0.342483,51.772097,161.219338,E12000006,East of England,147373,38399,90511,18463,72267,19736,44333,8198,75106,18663,46178,10265,35870.11494,914.114906
E07000241,Welwyn Hatfield,-0.194098,51.766913,129.538444,E12000006,East of England,122746,26948,81750,14048,60417,13696,40673,6048,62329,13252,41077,8000,31241.79104,947.5642613
E07000242,East Hertfordshire,-0.008203,51.865109,475.731353,E12000006,East of England,148105,34719,94083,19303,72565,17862,46095,8608,75540,16857,47988,10695,33226.19048,311.3206625
E07000243,Stevenage,-0.189337,51.904343,25.9576,E12000006,East of England,87754,21086,56899,9769,43256,10957,28151,4148,44498,10129,28748,5621,30796.15385,3380.666934
E07000244,East Suffolk,1.461877,52.239825,1261.339837,E12000006,East of England,248249,49970,148535,49744,120806,25345,72805,22656,127443,24625,75730,27088,28709.58904,196.8137315
E07000245,West Suffolk,0.622219,52.277879,1034.742564,E12000006,East of England,178881,39524,111659,27698,90129,20346,57266,12517,88752,19178,54393,15181,29114,172.8748833
E07000246,Somerset West and Taunton,-3.365033,51.084706,1189.335674,E12000009,South West,153866,31044,94178,28644,74574,15791,45974,12809,79292,15253,48204,15835,26207.95455,129.3713822
E08000001,Bolton,-2.466963,53.578657,139.804451,E12000002,North West,285372,71115,179219,35038,141579,36590,89195,15794,143793,34525,90024,19244,24403.9548,2041.222565
E08000002,Bury,-2.312539,53.587868,99.478499,E12000002,North West,190108,45253,120012,24843,93204,23327,58839,11038,96904,21926,61173,13805,26372.5,1911.046125
E08000003,Manchester,-2.232485,53.451547,115.617724,E12000002,North West,547627,128621,383874,35132,277477,65635,196880,14962,270150,62986,186994,20170,21909.21986,4736.531572
E08000004,Oldham,-2.050647,53.551882,142.349324,E12000002,North West,235623,62417,146162,27044,116098,31916,72364,11818,119525,30501,73798,15226,23691.48936,1655.244952
E08000005,Rochdale,-2.157814,53.61659,158.106666,E12000002,North West,220001,55240,139609,25152,108622,28499,68910,11213,111379,26741,70699,13939,23411.9403,1391.472008
E08000006,Salford,-2.37012,53.489555,97.205349,E12000002,North West,254408,59316,169015,26077,128381,30334,86468,11579,126027,28982,82547,14498,23302.66667,2617.222227
E08000007,Stockport,-2.128112,53.393981,126.071935,E12000002,North West,291775,66360,182886,42529,142971,34245,89760,18966,148804,32115,93126,23563,28023.68421,2314.353309
E08000008,Tameside,-2.062776,53.477482,103.169802,E12000002,North West,225197,52653,144379,28165,110673,26683,71304,12686,114524,25970,73075,15479,23517.7305,2182.78019
E08000009,Trafford,-2.355343,53.419021,106.012192,E12000002,North West,236370,58792,147735,29843,115579,30025,72617,12937,120791,28767,75118,16906,27898.55072,2229.649209
E08000010,Wigan,-2.58954,53.524164,188.174441,E12000002,North West,326088,71957,210295,43836,162617,37187,105245,20185,163471,34770,105050,23651,25308.5,1732.902717
E08000011,Knowsley,-2.834079,53.425158,86.525915,E12000002,North West,149571,35166,96602,17803,71112,18109,45362,7641,78459,17057,51240,10162,20870.40816,1728.62662
E08000012,Liverpool,-2.916694,53.403955,111.839161,E12000002,North West,494814,100806,342989,51019,246709,51541,172626,22542,248105,49265,170363,28477,21910.40268,4424.335766
E08000013,St. Helens,-2.723611,53.459502,136.420628,E12000002,North West,180049,38742,114843,26464,88644,19869,56880,11895,91405,18873,57963,14569,25147.05882,1319.807735
E08000014,Sefton,-3.003955,53.54979,153.079796,E12000002,North West,275396,56758,171259,47379,132494,29123,83314,20057,142902,27635,87945,27322,25620.63492,1799.035583
E08000015,Wirral,-3.069726,53.363302,157.070018,E12000002,North West,323235,71240,201665,50330,156507,36568,97964,21975,166728,34672,103701,28355,26240.7767,2057.903883
E08000016,Barnsley,-1.532499,53.535847,329.077113,E12000003,Yorkshire and The Humber,245199,53223,158303,33673,121017,27189,78705,15123,124182,26034,79598,18550,26375.5102,745.1110707
E08000017,Doncaster,-1.095758,53.544305,567.946048,E12000003,Yorkshire and The Humber,310542,69729,198966,41847,154404,35664,100165,18575,156138,34065,98801,23272,25684.02062,546.7808097
E08000018,Rotherham,-1.286247,53.408664,286.510075,E12000003,Yorkshire and The Humber,264671,60243,167080,37348,130055,30599,82782,16674,134616,29644,84298,20674,26568.86228,923.7755426
E08000019,Sheffield,-1.55049,53.404452,367.920317,E12000003,Yorkshire and The Humber,582506,124641,388894,68971,289846,63959,195451,30436,292660,60682,193443,38535,27207.24638,1583.239558
E08000021,Newcastle upon Tyne,-1.658267,55.008275,113.422024,E12000001,North East,300196,61852,207385,30959,151740,31832,106174,13734,148456,30020,101211,17225,24158.85714,2646.717008
E08000022,North Tyneside,-1.519273,55.028372,82.388903,E12000001,North East,205985,43415,133262,29308,99612,22387,64668,12557,106373,21028,68594,16751,25955.72519,2500.154663
E08000023,South Tyneside,-1.444457,54.962762,64.44308,E12000001,North East,150265,31529,97435,21301,72897,16153,47538,9206,77368,15376,49897,12095,24397.05882,2331.747645
E08000024,Sunderland,-1.452737,54.879956,137.429128,E12000001,North East,277417,57581,181880,37956,135291,29777,89083,16431,142126,27804,92797,21525,24277.83784,2018.618644
E08000025,Birmingham,-1.874698,52.488631,267.790598,E12000005,West Midlands,1141374,304171,730399,106804,565146,156572,362130,46444,576228,147599,368269,60360,22505.16432,4262.188473
E08000026,Coventry,-1.519795,52.416885,98.610359,E12000005,West Midlands,366785,83568,246718,36499,186154,43035,126947,16172,180631,40533,119771,20327,24645.12821,3719.538228
E08000027,Dudley,-2.108736,52.482863,97.931243,E12000005,West Midlands,320626,72875,199886,47865,157150,37119,98586,21445,163476,35756,101300,26420,24918.90547,3273.990916
E08000028,Sandwell,-2.008994,52.515455,85.569661,E12000005,West Midlands,327378,85723,205913,35742,162341,44123,102659,15559,165037,41600,103254,20183,20889.78495,3825.865338
E08000029,Solihull,-1.727082,52.413134,178.287871,E12000005,West Midlands,214909,49495,131853,33561,104605,25587,64302,14716,110304,23908,67551,18845,29666.41791,1205.404489
E08000030,Walsall,-1.966355,52.599276,103.985564,E12000005,West Midlands,283378,71588,175174,36616,139315,36676,86666,15973,144063,34912,88508,20643,22979.64072,2725.166736
E08000031,Wolverhampton,-2.121,52.58922,69.429611,E12000005,West Midlands,262008,64201,166111,31696,130125,32773,83324,14028,131883,31428,82787,17668,22782.91139,3773.721273
E08000032,Bradford,-1.85473,53.844725,366.398391,E12000003,Yorkshire and The Humber,537173,149183,332199,55791,264740,75514,165032,24194,272433,73669,167167,31597,22448.70968,1466.089953
E08000033,Calderdale,-1.97346,53.721202,363.939491,E12000003,Yorkshire and The Humber,210082,48504,134146,27432,103175,24666,66531,11978,106907,23838,67615,15454,25214.84375,577.244309
E08000034,Kirklees,-1.763227,53.627397,408.587514,E12000003,Yorkshire and The Humber,438727,105335,278806,54586,217408,53579,139810,24019,221319,51756,138996,30567,24411.96911,1073.765069
E08000035,Leeds,-1.506018,53.825769,551.774309,E12000003,Yorkshire and The Humber,789194,177204,523771,88219,387143,90760,258112,38271,402051,86444,265659,49948,25376.34855,1430.284062
E08000036,Wakefield,-1.411794,53.660674,338.565238,E12000003,Yorkshire and The Humber,345038,76529,222019,46490,169581,39102,109749,20730,175457,37427,112270,25760,26278.94737,1019.118212
E08000037,Gateshead,-1.683325,54.934984,142.347261,E12000001,North East,202508,41924,131961,28623,99759,21428,65649,12682,102749,20496,66312,15941,24483.33333,1422.633626
E09000001,City of London,-0.092102,51.514823,2.905505,E12000007,London,8706,1509,6121,1076,4788,752,3492,544,3918,757,2629,532,41800,2996.381008
E09000002,Barking and Dagenham,0.133566,51.545286,36.096775,E12000007,London,211998,66012,132059,13927,104984,34108,65127,5749,107014,31904,66932,8178,25777.27273,5873.045445
E09000003,Barnet,-0.209984,51.616035,86.75252,E12000007,London,392140,97033,254607,40500,194318,49949,126783,17586,197822,47084,127824,22914,32906.16114,4520.214514
E09000004,Bexley,0.140395,51.458821,60.560372,E12000007,London,247258,59816,157203,30239,119500,30886,75937,12677,127758,28930,81266,17562,32476.71233,4082.834894
E09000005,Brent,-0.267802,51.558552,43.237133,E12000007,London,330795,81707,221331,27757,168733,41927,114390,12416,162062,39780,106941,15341,27580.34682,7650.715416
E09000006,Bromley,0.05157,51.372003,150.146116,E12000007,London,331096,78548,209838,42710,159281,40282,100779,18220,171815,38266,109059,24490,36642.63959,2205.158607
E09000007,Camden,-0.157405,51.546385,21.787585,E12000007,London,262226,53823,186276,22127,132346,27473,95209,9664,129880,26350,91067,12463,32493.98496,12035.5698
E09000008,Croydon,-0.087125,51.355332,86.531528,E12000007,London,385346,99369,248974,37003,187187,50648,120288,16251,198159,48721,128686,20752,31089.54545,4453.243909
E09000009,Ealing,-0.331008,51.522472,55.525996,E12000007,London,341982,85578,226097,30307,172185,43983,114630,13572,169797,41595,111467,16735,30757.65306,6158.953006
E09000010,Enfield,-0.08723,51.651007,82.207098,E12000007,London,333869,88599,213581,31689,163380,45665,104019,13696,170489,42934,109562,17993,28274.86339,4061.315971
E09000011,Greenwich,0.056293,51.472815,47.339664,E12000007,London,286186,71943,193306,20937,144329,36737,98361,9231,141857,35206,94945,11706,30168.21192,6045.374551
E09000012,Hackney,-0.063317,51.552269,19.066861,E12000007,London,279665,66459,198992,14214,139304,33680,99219,6405,140361,32779,99773,7809,27142.36111,14667.59526
E09000013,Hammersmith and Fulham,-0.221304,51.495997,16.390524,E12000007,London,185426,38442,133063,13921,91592,19370,66269,5953,93834,19072,66794,7968,31726.54867,11313.00012
E09000014,Haringey,-0.107482,51.590369,29.592511,E12000007,London,270624,63405,188646,18573,136773,32252,96385,8136,133851,31153,92261,10437,30006.2069,9145.016454
E09000015,Harrow,-0.341236,51.597726,50.471829,E12000007,London,250149,61256,160881,28012,125133,31501,81037,12595,125016,29755,79844,15417,33148.17518,4956.210325
E09000016,Havering,0.221128,51.564396,112.371596,E12000007,London,257810,60409,162933,34468,123878,30696,78921,14261,133932,29713,84012,20207,32266,2294.263045
E09000017,Hillingdon,-0.445638,51.541506,115.709349,E12000007,London,304824,77128,198219,29477,153156,39651,100288,13217,151668,37477,97931,16260,31936.64596,2634.393873
E09000018,Hounslow,-0.367069,51.468376,55.97716,E12000007,London,270782,67728,180682,22372,137796,34707,93099,9990,132986,33021,87583,12382,30885.91549,4837.365811
E09000019,Islington,-0.110238,51.548469,14.862587,E12000007,London,239142,44308,180221,14613,120226,22530,91234,6462,118916,21778,88987,8151,29613.82114,16090.20018
E09000020,Kensington and Chelsea,-0.192753,51.501625,12.13336,E12000007,London,156197,30092,108760,17345,78419,15516,54988,7915,77778,14576,53772,9430,34186.40777,12873.35083
E09000021,Kingston upon Thames,-0.286899,51.387893,37.237162,E12000007,London,175470,40861,117355,17254,86734,20556,58664,7514,88736,20305,58691,9740,38665.30612,4712.228069
E09000022,Lambeth,-0.118265,51.453067,26.813994,E12000007,London,325917,65534,241844,18539,163946,33427,122428,8091,161971,32107,119416,10448,30745.50562,12154.73532
E09000023,Lewisham,-0.020232,51.448095,35.15352,E12000007,London,303536,71516,212033,19987,149849,36630,104623,8596,153687,34886,107410,11391,30672.78107,8634.583393
E09000024,Merton,-0.197266,51.409951,37.628932,E12000007,London,206186,49294,138637,18255,101729,25387,68407,7935,104457,23907,70230,10320,35299.19355,5479.453948
E09000025,Newham,0.036415,51.528356,36.243768,E12000007,London,352005,90620,243927,17458,186542,46310,132411,7821,165463,44310,111516,9637,26388.41463,9712.152445
E09000026,Redbridge,0.075884,51.585682,56.410474,E12000007,London,303858,79888,197122,26848,153677,41412,100425,11840,150181,38476,96697,15008,31101.24224,5386.552859
E09000027,Richmond upon Thames,-0.312925,51.442185,57.390096,E12000007,London,196904,47483,127544,21877,95694,24161,62063,9470,101210,23322,65481,12407,40240.86957,3430.975268
E09000028,Southwark,-0.074585,51.473125,28.84559,E12000007,London,317256,68158,231025,18073,158418,34787,115852,7779,158838,33371,115173,10294,31007.22892,10998.42298
E09000029,Sutton,-0.177552,51.362085,43.856234,E12000007,London,204525,50182,131655,22688,99777,25875,64107,9795,104748,24307,67548,12893,35217.35537,4663.533125
E09000030,Tower Hamlets,-0.035564,51.517182,19.732772,E12000007,London,317705,74132,230381,13192,165849,37894,121959,5996,151856,36238,108422,7196,28506.94444,16100.37353
E09000031,Waltham Forest,-0.012628,51.594041,38.813842,E12000007,London,276700,69846,186243,20611,139366,35870,94450,9046,137334,33976,91793,11565,29763.19444,7128.900046
E09000032,Wandsworth,-0.186407,51.451368,34.262241,E12000007,London,326474,66304,238508,21662,156569,33774,113505,9290,169905,32530,125003,12372,36289.94413,9528.682026
E09000033,Westminster,-0.161251,51.513893,21.484296,E12000007,London,255324,50004,183404,21916,133472,25765,97553,10154,121852,24239,85851,11762,32839.0625,11884.21534
